[
  {
    "id": 1,
    "nome": "Praia de Guriri",
    "categoria": "turisticos",
    "lat": -18.7167,
    "lng": -39.8567,
    "descricao": "Principal praia da região com extensa faixa de areia dourada, águas cristalinas e excelente infraestrutura para turistas. Ideal para banho de mar, caminhadas e esportes aquáticos.",
    "endereco": "Orla de Guriri, São Mateus - ES",
    "avaliacao": 4.7,
    "horario": "Acesso livre 24h",
    "website": "https://www.saomateus.es.gov.br/turismo"
  },
  {
    "id": 2,
    "nome": "Farol de Guriri",
    "categoria": "turisticos",
    "lat": -18.7200,
    "lng": -39.8500,
    "descricao": "Farol histórico com vista panorâmica da costa. Ponto de referência para navegação e excelente local para fotografias do pôr do sol.",
    "endereco": "Ponta Norte de Guriri, São Mateus - ES",
    "avaliacao": 4.5,
    "horario": "Visitação: 8h às 17h"
  },
  {
    "id": 3,
    "nome": "Área de Preservação da Restinga Norte",
    "categoria": "preservacao",
    "lat": -18.7100,
    "lng": -39.8450,
    "descricao": "Área protegida com vegetação nativa de restinga, dunas preservadas e importante local de nidificação de tartarugas marinhas.",
    "endereco": "Norte de Guriri, São Mateus - ES",
    "horario": "Visitação guiada: 7h às 16h"
  },
  {
    "id": 4,
    "nome": "Restaurante Sabor do Mar",
    "categoria": "restaurantes",
    "lat": -18.7180,
    "lng": -39.8580,
    "descricao": "Restaurante especializado em frutos do mar com pratos típicos da culinária caiçara. Destaque para a moqueca capixaba e o bobó de camarão.",
    "endereco": "Av. Atlântica, 150 - Guriri, São Mateus - ES",
    "avaliacao": 4.6,
    "telefone": "(27) 3763-2500",
    "horario": "11h às 22h",
    "preco": "R$ 35-60 por pessoa"
  },
  {
    "id": 5,
    "nome": "Restaurante Canto do Pescador",
    "categoria": "restaurantes",
    "lat": -18.7190,
    "lng": -39.8590,
    "descricao": "Ambiente familiar com vista para o mar, especializado em peixe fresco e pratos tradicionais. Famoso pela tainha grelhada e pirão de peixe.",
    "endereco": "Rua da Praia, 89 - Guriri, São Mateus - ES",
    "avaliacao": 4.4,
    "telefone": "(27) 3763-1800",
    "horario": "10h às 21h (fecha às terças)",
    "preco": "R$ 25-45 por pessoa"
  },
  {
    "id": 6,
    "nome": "Pousada Brisa do Mar",
    "categoria": "hoteis",
    "lat": -18.7175,
    "lng": -39.8575,
    "descricao": "Pousada aconchegante a 100m da praia, com quartos climatizados, café da manhã incluso e estacionamento. Atendimento familiar e ambiente tranquilo.",
    "endereco": "Rua dos Coqueiros, 45 - Guriri, São Mateus - ES",
    "avaliacao": 4.3,
    "telefone": "(27) 3763-2200",
    "website": "https://pousadabrisamar.com.br",
    "preco": "R$ 120-180 por noite"
  },
  {
    "id": 7,
    "nome": "Hotel Guriri Plaza",
    "categoria": "hoteis",
    "lat": -18.7195,
    "lng": -39.8585,
    "descricao": "Hotel com vista para o mar, piscina, restaurante próprio e quartos com varanda. Localização privilegiada no centro de Guriri.",
    "endereco": "Av. Atlântica, 280 - Guriri, São Mateus - ES",
    "avaliacao": 4.1,
    "telefone": "(27) 3763-3000",
    "website": "https://hotelguririplaza.com.br",
    "preco": "R$ 180-280 por noite"
  },
  {
    "id": 8,
    "nome": "Mirante do Farol",
    "categoria": "turisticos",
    "lat": -18.7205,
    "lng": -39.8495,
    "descricao": "Mirante natural com vista privilegiada do oceano Atlântico e da costa de Guriri. Local ideal para contemplação e observação de baleias na temporada.",
    "endereco": "Trilha do Farol, Guriri - São Mateus - ES",
    "avaliacao": 4.8,
    "horario": "Acesso livre, recomendado das 6h às 18h"
  },
  {
    "id": 9,
    "nome": "Porto de Pescadores",
    "categoria": "turisticos",
    "lat": -18.7220,
    "lng": -39.8610,
    "descricao": "Porto tradicional onde os pescadores locais atracam suas embarcações. Local autêntico para conhecer a cultura caiçara e comprar peixe fresco.",
    "endereco": "Cais de Guriri, São Mateus - ES",
    "avaliacao": 4.2,
    "horario": "Atividade pesqueira: 5h às 8h e 16h às 18h"
  },
  {
    "id": 10,
    "nome": "Trilha das Dunas",
    "categoria": "turisticos",
    "lat": -18.7150,
    "lng": -39.8480,
    "descricao": "Trilha ecológica que percorre as dunas preservadas de Guriri, com rica biodiversidade de flora e fauna costeira. Caminhada de dificuldade leve.",
    "endereco": "Acesso pela Rua das Palmeiras, Guriri - ES",
    "avaliacao": 4.6,
    "horario": "Recomendado: 6h às 10h e 16h às 18h"
  },
  {
    "id": 11,
    "nome": "Área de Preservação Sul",
    "categoria": "preservacao",
    "lat": -18.7280,
    "lng": -39.8620,
    "descricao": "Zona de proteção ambiental com manguezais, importantes para reprodução de peixes e crustáceos. Área de pesquisa científica e educação ambiental.",
    "endereco": "Sul de Guriri, São Mateus - ES",
    "horario": "Visitação com guia autorizado"
  },
  {
    "id": 12,
    "nome": "Centro de Visitantes Centro Tamar",
    "categoria": "turisticos",
    "lat": -18.7170,
    "lng": -39.8560,
    "descricao": "Centro educativo sobre conservação de tartarugas marinhas com exposições interativas, aquários e programas de soltura de filhotes.",
    "endereco": "Av. Beira Mar, s/n - Guriri, São Mateus - ES",
    "avaliacao": 4.9,
    "telefone": "(27) 3763-1500",
    "horario": "9h às 17h (fecha às segundas)",
    "website": "https://tamar.org.br"
  },
  {
    "id": 13,
    "nome": "Lanchonete Sabores da Ilha",
    "categoria": "restaurantes",
    "lat": -18.7185,
    "lng": -39.8585,
    "descricao": "Lanchonete casual com sanduíches, açaí, sucos naturais e petiscos. Popular entre surfistas e jovens, com ambiente descontraído.",
    "endereco": "Rua Central, 78 - Guriri, São Mateus - ES",
    "avaliacao": 4.0,
    "telefone": "(27) 3763-1200",
    "horario": "7h às 23h",
    "preco": "R$ 15-30 por pessoa"
  },
  {
    "id": 14,
    "nome": "Posto de Saúde Guriri",
    "categoria": "servicos",
    "lat": -18.7200,
    "lng": -39.8600,
    "descricao": "Unidade básica de saúde com atendimento médico de emergência, enfermagem e primeiros socorros para turistas e moradores.",
    "endereco": "Rua Principal, 156 - Guriri, São Mateus - ES",
    "telefone": "(27) 3763-1100",
    "horario": "24h (emergências)"
  },
  {
    "id": 15,
    "nome": "Farmácia São Jorge",
    "categoria": "servicos",
    "lat": -18.7192,
    "lng": -39.8595,
    "descricao": "Farmácia com medicamentos, produtos de higiene e primeiros socorros. Atendimento farmacêutico e delivery local.",
    "endereco": "Av. Central, 89 - Guriri, São Mateus - ES",
    "telefone": "(27) 3763-1400",
    "horario": "7h às 22h"
  },
  {
    "id": 16,
    "nome": "Banco 24 Horas",
    "categoria": "servicos",
    "lat": -18.7188,
    "lng": -39.8592,
    "descricao": "Caixa eletrônico 24 horas com saque, consulta de saldo e outros serviços bancários.",
    "endereco": "Praça Central - Guriri, São Mateus - ES",
    "horario": "24h"
  },
  {
    "id": 17,
    "nome": "Lixeira Seletiva - Praia Norte",
    "categoria": "servicos",
    "lat": -18.7160,
    "lng": -39.8540,
    "descricao": "Ponto de coleta seletiva com separação de plástico, vidro, papel e orgânico. Parte do programa de sustentabilidade de Guriri.",
    "endereco": "Orla Norte, Guriri - São Mateus - ES",
    "horario": "Acesso livre 24h"
  },
  {
    "id": 18,
    "nome": "Lixeira Seletiva - Centro",
    "categoria": "servicos",
    "lat": -18.7190,
    "lng": -39.8590,
    "descricao": "Central de coleta seletiva completa com todas as categorias de resíduos recicláveis e orgânicos.",
    "endereco": "Praça Central, Guriri - São Mateus - ES",
    "horario": "Coleta diária às 6h e 18h"
  },
  {
    "id": 19,
    "nome": "Lixeira Seletiva - Praia Sul",
    "categoria": "servicos",
    "lat": -18.7250,
    "lng": -39.8600,
    "descricao": "Ponto de coleta estratégico próximo às áreas de preservação, com foco em educação ambiental.",
    "endereco": "Orla Sul, Guriri - São Mateus - ES",
    "horario": "Acesso livre 24h"
  },
  {
    "id": 20,
    "nome": "Praia do Farol",
    "categoria": "turisticos",
    "lat": -18.7210,
    "lng": -39.8510,
    "descricao": "Praia mais selvagem e preservada, próxima ao farol. Ideal para quem busca tranquilidade e contato com a natureza.",
    "endereco": "Norte de Guriri, São Mateus - ES",
    "avaliacao": 4.5,
    "horario": "Acesso livre, cuidado com marés"
  },
  {
    "id": 21,
    "nome": "Pizzaria Fornalha",
    "categoria": "restaurantes",
    "lat": -18.7182,
    "lng": -39.8588,
    "descricao": "Pizzaria tradicional com forno à lenha, massas artesanais e ingredientes frescos. Ambiente familiar com opções vegetarianas.",
    "endereco": "Rua das Flores, 34 - Guriri, São Mateus - ES",
    "avaliacao": 4.3,
    "telefone": "(27) 3763-2100",
    "horario": "18h às 23h (fecha às segundas)",
    "preco": "R$ 40-70 para dois"
  },
  {
    "id": 22,
    "nome": "Camping Natureza",
    "categoria": "hoteis",
    "lat": -18.7240,
    "lng": -39.8580,
    "descricao": "Camping com estrutura completa: banheiros, chuveiros, área para barracas e trailers. Próximo à praia e área de preservação.",
    "endereco": "Estrada da Praia Sul, km 2 - Guriri, ES",
    "avaliacao": 4.0,
    "telefone": "(27) 3763-1900",
    "preco": "R$ 25-40 por pessoa/noite"
  },
  {
    "id": 23,
    "nome": "Posto de Combustível Shell",
    "categoria": "servicos",
    "lat": -18.7195,
    "lng": -39.8605,
    "descricao": "Posto de combustível com conveniência, lava-jato e borracharia. Serviços essenciais para turistas e moradores.",
    "endereco": "Entrada de Guriri, São Mateus - ES",
    "telefone": "(27) 3763-1600",
    "horario": "6h às 22h"
  },
  {
    "id": 24,
    "nome": "Igreja Nossa Senhora dos Navegantes",
    "categoria": "turisticos",
    "lat": -18.7198,
    "lng": -39.8598,
    "descricao": "Igreja histórica dos pescadores com arquitetura simples e vista para o mar. Local de importante festa religiosa em fevereiro.",
    "endereco": "Largo da Igreja - Guriri, São Mateus - ES",
    "avaliacao": 4.2,
    "horario": "Missas: Dom 7h e 19h"
  },
  {
    "id": 25,
    "nome": "Mercado do Peixe",
    "categoria": "servicos",
    "lat": -18.7215,
    "lng": -39.8605,
    "descricao": "Mercado tradicional onde pescadores vendem o peixe fresco do dia. Melhor horário para compras: manhã cedo após chegada dos barcos.",
    "endereco": "Cais dos Pescadores - Guriri, São Mateus - ES",
    "avaliacao": 4.4,
    "horario": "5h às 11h e 16h às 19h"
  },
  {
    "id": 26,
    "nome": "Casa de Cabeça pra Baixo",
    "categoria": "turisticos",
    "lat": -18.760803,
    "lng": -39.764007,
    "descricao": "Uma atração divertida onde tudo foi construído de ponta-cabeça, garantindo fotos criativas e uma experiência inusitada.",
    "endereco": "Loteamento mar aberto, s/n - Guriri, São Mateus - ES",
    "avaliacao": 4.6,
    "telefone": "(27) 99794-0336",
    "horario": "7h às 12h e 13h às 18h"
  }
]
